CenLon,CenLat,POLITICAL_UNIT,NAME,WGMS_ID,PSFG_ID,WGI_ID,GLIMS_ID,RGI40_ID,RGI50_ID,RGI_REG,RGI_REG_NAME,GlacierType,TerminusType,IsTidewater,N_MB_YRS,HAS_PROFILE,REMARKS
-57.3729,-63.8619,AQ,BAHIA DEL DIABLO,2665,,,,RGI40-19.00595,RGI50-19.00595,19,19: Antarctic and Subantarctic,Ice cap,Marine-terminating,True,15,True,RGI link checked manually.
-60.6025,-63.0041,AQ,G1,3925,,,,RGI40-19.02101,RGI50-19.02101,19,19: Antarctic and Subantarctic,Glacier,Land-terminating,False,6,False,RGI link checked manually.
-60.3948,-62.6827,AQ,HURD,3367,,AQ0006C00000,,RGI40-19.02057,RGI50-19.02057,19,19: Antarctic and Subantarctic,Glacier,Marine-terminating,True,12,False,RGI link checked manually.
-60.3547,-62.6707,AQ,JOHNSONS,3366,,AQ0006C00000,,RGI40-19.02059,RGI50-19.02059,19,19: Antarctic and Subantarctic,Glacier,Marine-terminating,True,12,False,RGI link checked manually.
-69.6416,-29.9831,AR,BROWN SUPERIOR,3903,,,,RGI40-17.14923,RGI50-17.14923,17,17: Southern Andes,Glacier,Land-terminating,False,8,True,RGI link checked manually.
-69.6442,-29.9757,AR,CONCONTA NORTE,3902,,,,RGI40-17.14924,RGI50-17.14924,17,17: Southern Andes,Glacier,Land-terminating,False,8,True,RGI link checked manually.
-69.9909,-29.3005,AR,LOS AMARILLOS,3904,,,,RGI40-17.15131,RGI50-17.15131,17,17: Southern Andes,Glacier,Land-terminating,False,8,True,RGI link checked manually.
-68.4093,-54.7862,AR,MARTIAL ESTE,2000,,,,RGI40-17.02128,RGI50-17.02128,17,17: Southern Andes,Glacier,Land-terminating,False,14,True,RGI link checked manually.
-70.1481,-32.5933,AR,PILOTO ESTE,3589,,AR1J11100000,,RGI40-17.14445,RGI50-17.14445,17,17: Southern Andes,Glacier,Land-terminating,False,24,False,RGI link checked manually.
12.5956,47.1403,AT,FILLECK K.,476,AT0601B,ATJ143S0A098,,RGI40-11.00073,RGI50-11.00073,11,11: Central Europe,Glacier,Land-terminating,False,17,False,RGI link checked manually.
12.9702,47.0421,AT,GOLDBERG K.,1305,AT0802B,,,RGI40-11.00289,RGI50-11.00289,11,11: Central Europe,Glacier,Land-terminating,False,26,True,RGI link checked manually.
13.6135,47.4845,AT,HALLSTAETTER G.,535,AT1102,ATJ142T0R002,,RGI40-11.00002,RGI50-11.00002,11,11: Central Europe,Glacier,Land-terminating,False,8,True,RGI link checked manually.
10.7584,46.8003,AT,HINTEREIS F.,491,AT0209,ATJ143O0E125,,RGI40-11.00897,RGI50-11.00897,11,11: Central Europe,Glacier,Land-terminating,False,63,True,RGI link checked manually.
13.0581,47.4242,AT,HOCHKOENIG,3993,,,,RGI40-11.00012,RGI50-11.00012,11,11: Central Europe,Glacier,Land-terminating,False,10,False,RGI link checked manually.
10.1603,46.8577,AT,JAMTAL F.,480,AT0106,ATJ143S0N019,,RGI40-11.00781,RGI50-11.00781,11,11: Central Europe,Glacier,Land-terminating,False,26,True,RGI link checked manually.
10.7907,46.8424,AT,KESSELWAND F.,507,AT0226,ATJ143O0E129,,RGI40-11.00787,RGI50-11.00787,11,11: Central Europe,Glacier,Land-terminating,False,59,True,RGI link checked manually.
12.9472,47.053000000000004,AT,KLEINFLEISS K.,547,AT0801,ATJ131M0O036,,RGI40-11.00251,RGI50-11.00251,11,11: Central Europe,Glacier,Land-terminating,False,16,True,RGI link checked manually.
11.0191,46.7817,AT,LANGTALER F.,510,AT0223,ATJ143O0E072,,RGI40-11.00929,RGI50-11.00929,11,11: Central Europe,Glacier,Land-terminating,False,8,True,RGI link checked manually.
10.1054,46.8515,AT,OCHSENTALER G.,483,AT0103,ATR013I0L008,,RGI40-11.00797,RGI50-11.00797,11,11: Central Europe,Glacier,Land-terminating,False,9,True,RGI link checked manually.
12.6967,47.0991,AT,PASTERZE,566,AT0704,ATJ131M0O027,,RGI40-11.00106,RGI50-11.00106,11,11: Central Europe,Glacier,Land-terminating,False,28,True,RGI link checked manually.
12.5964,47.1316,AT,STUBACHER SONNBLICK K.,573,AT0601A,ATJ143S0A097,,RGI40-11.00080,RGI50-11.00080,11,11: Central Europe,Glacier,Land-terminating,False,70,True,RGI link checked manually.
10.1309,46.8529,AT,VERMUNT G.,482,AT0104,ATR013I0L007,,RGI40-11.00807,RGI50-11.00807,11,11: Central Europe,Glacier,Land-terminating,False,9,True,RGI link checked manually.
10.818,46.8762,AT,VERNAGT F.,489,AT0211,ATJ143O0E133,,RGI40-11.00719,RGI50-11.00719,11,11: Central Europe,Glacier,Land-terminating,False,51,True,RGI link checked manually.
13.0049,47.0385,AT,WURTEN K.,545,AT0804,ATJ131M0O038,,RGI40-11.00300,RGI50-11.00300,11,11: Central Europe,Glacier,Land-terminating,False,31,True,RGI link checked manually.
12.3784,47.0851,AT,ZETTALUNITZ/MULLWITZ K.,578,AT0508,ATJ131I0S054,,RGI40-11.00190,RGI50-11.00190,11,11: Central Europe,Glacier,Land-terminating,False,8,True,RGI link checked manually.
-68.1287,-16.3523,BO,CHACALTAYA,1505,BO5180,BO00XXX00002,,RGI40-16.01447,RGI50-16.01447,16,16: Low Latitudes,Glacier,Land-terminating,False,17,True,RGI link checked manually.
-68.1064,-16.3023,BO,CHARQUINI SUR,2667,,,,RGI40-16.00532,RGI50-16.00532,16,16: Low Latitudes,Glacier,Land-terminating,False,11,True,RGI link checked manually.
-68.1439,-16.274,BO,ZONGO,1503,BO5150,BO00XXX00001,,RGI40-16.00543,RGI50-16.00543,16,16: Low Latitudes,Glacier,Land-terminating,False,22,True,RGI link checked manually.
-130.83,57.091,CA,ALEXANDER,32,CA0133,CA0N00200001,,RGI40-01.05355,RGI50-01.05355,01,01: Alaska,Glacier,Land-terminating,False,9,True,RGI link checked manually.
-131.062,56.955,CA,ANDREI,34,CA0148,CA0N00200002,,RGI40-01.04591,RGI50-01.04591,01,01: Alaska,Glacier,Land-terminating,False,10,True,RGI link checked manually.
-90.9688,79.4405,CA,BABY,1,CA0205,CAR014E00009,,RGI40-03.00840,RGI50-03.00840,03,03: Arctic Canada North,Glacier,Land-terminating,False,34,False,RGI link checked manually.
-73.0575,70.0214,CA,BARNES ICE CAP SOUTH DOME N SLOPE,38,CA0210A,CA0000T00210,,RGI40-04.06187,RGI50-04.06187,04,04: Arctic Canada South,Ice cap,Land-terminating,False,13,False,RGI link checked manually.
-124.911,51.4455,CA,BENCH,66,CA0234,CA0 XXX00013,,RGI40-02.05986,RGI50-02.05986,02,02: Western Canada and US,Glacier,Land-terminating,False,8,True,RGI link checked manually.
-123.639,50.8216,CA,BRIDGE,47,CA0275,CA0M20000001,,RGI40-02.04119,RGI50-02.04119,02,02: Western Canada and US,Glacier,Land-terminating,False,5,True,RGI link checked manually.
-69.8037,69.6303,CA,DECADE,3909,,,,RGI40-04.03082,RGI50-04.03082,04,04: Arctic Canada South,Glacier,Land-terminating,False,5,False,RGI link checked manually.
-83.162,75.4978,CA,DEVON ICE CAP NW,39,CA0431,CA000S200001,,RGI40-03.02435,RGI50-03.02435,03,03: Arctic Canada North,Ice cap,Marine-terminating,True,53,True,RGI link checked manually.
-122.98899999999999,49.9609,CA,HELM,45,CA0855,CAM000C00002,,RGI40-02.01860,RGI50-02.01860,02,02: Western Canada and US,Glacier,Land-terminating,False,39,True,RGI link checked manually.
-79.1438,75.8872,CA,LAIKA,1412,CA0720,,,RGI40-03.01427,RGI50-03.01427,03,03: Arctic Canada North,Glacier,Land-terminating,False,6,True,RGI link checked manually.
-99.1904,79.982,CA,MEIGHEN ICE CAP,16,CA1335,CA002R900001,,RGI40-03.00691,RGI50-03.00691,03,03: Arctic Canada North,Glacier,Land-terminating,False,54,True,RGI link checked manually.
-114.965,75.4291,CA,MELVILLE SOUTH ICE CAP,3690,,,,RGI40-02.13974,RGI50-02.13974,02,02: Western Canada and US,Glacier,Land-terminating,False,51,True,RGI link checked manually.
-116.56,51.6585,CA,PEYTO,57,CA1640,CA0M12200002,,RGI40-02.06581,RGI50-02.06581,02,02: Western Canada and US,Glacier,Land-terminating,False,49,True,RGI link checked manually.
-122.605,50.4195,CA,PLACE,41,CA1660,CA0M20000002,,RGI40-02.02587,RGI50-02.02587,02,02: Western Canada and US,Glacier,Land-terminating,False,50,True,RGI link checked manually.
-116.486,51.818999999999996,CA,RAM RIVER,1394,CA1815,,,RGI40-02.07173,RGI50-02.07173,02,02: Western Canada and US,Glacier,Land-terminating,False,10,True,RGI link checked manually.
-122.979,49.8876,CA,SENTINEL,44,CA1915,CAM000C00096,,RGI40-02.01779,RGI50-02.01779,02,02: Western Canada and US,Glacier,Land-terminating,False,23,True,RGI link checked manually.
-64.1739,81.9561,CA,ST PATRICK BAY NE ICE CAP,3908,,,,RGI40-03.01623,RGI50-03.01623,03,03: Arctic Canada North,Glacier,Land-terminating,False,7,False,RGI link checked manually.
-123.62100000000001,50.872,CA,SYKORA,59,CA1995,CA0M22000001,,RGI40-02.04114,RGI50-02.04114,02,02: Western Canada and US,Glacier,Land-terminating,False,10,True,RGI link checked manually.
-125.13600000000001,51.3432,CA,TIEDEMANN,24,CA2040,CA0 XXX00017,,RGI40-02.05862,RGI50-02.05862,02,02: Western Canada and US,Glacier,Land-terminating,False,7,True,RGI link checked manually.
-74.2248,83.1066,CA,WARD H. I. RISE,53,CA2318,CA0 XXX00003,,RGI40-03.04079,RGI50-03.04079,03,03: Arctic Canada North,Glacier,Land-terminating,False,25,False,RGI link checked manually.
-90.87697,79.5146,CA,WHITE,0,CA2340,CAR014E00015,,RGI40-03.04539,RGI50-03.04539,03,03: Arctic Canada North,Glacier,Land-terminating,False,52,True,RGI link checked manually.
-118.061,51.1141,CA,WOOLSEY,1402,CA2380,,,RGI40-02.04693,RGI50-02.04693,02,02: Western Canada and US,Glacier,Land-terminating,False,10,True,RGI link checked manually.
-130.684,56.975,CA,YURI,30,CA2530,CA0N00200003,,RGI40-01.05211,RGI50-01.05211,01,01: Alaska,Glacier,Land-terminating,False,10,True,RGI link checked manually.
-123.414,50.7918,CA,ZAVISHA,46,CA2605,CA0M20200001,,RGI40-02.03590,RGI50-02.03590,02,02: Western Canada and US,Glacier,Land-terminating,False,10,True,RGI link checked manually.
7.87661,46.0124,CH,ADLER,3801,CH0016B,CHN012506003,,RGI40-11.02780,RGI50-11.02780,11,11: Central Europe,Glacier,Land-terminating,False,9,True,RGI link checked manually.
9.64185,46.2987,CH,ALBIGNA,1674,CH0116,,,RGI40-11.02285,RGI50-11.02285,11,11: Central Europe,Glacier,Land-terminating,False,6,True,RGI link checked manually.
7.909489999999999,46.0336,CH,ALLALIN,394,CH0011,CHN012502029,,RGI40-11.02715,RGI50-11.02715,11,11: Central Europe,Glacier,Land-terminating,False,59,True,RGI link checked manually.
8.4812,46.416000000000004,CH,BASODINO,463,CH0104,CHL012104010,,RGI40-11.01987,RGI50-11.01987,11,11: Central Europe,Glacier,Land-terminating,False,23,True,RGI link checked manually.
8.891169999999999,46.8442,CH,CLARIDENFIRN,2660,CH0141,CH4R014OI019,,RGI40-11.00843,RGI50-11.00843,11,11: Central Europe,Glacier,Land-terminating,False,100,True,RGI link checked manually.
7.29108,45.9647,CH,CORBASSIERE,366,CH0038,CHN012803003,,RGI40-11.02782,RGI50-11.02782,11,11: Central Europe,Glacier,Land-terminating,False,18,False,RGI link checked manually.
7.87051,45.9936,CH,FINDELEN,389,CH0016,CHN012506003,,RGI40-11.02789,RGI50-11.02789,11,11: Central Europe,Glacier,Land-terminating,False,10,True,RGI link checked manually.
9.701080000000001,46.3085,CH,FORNO,396,CH0102,CHL011803012,,RGI40-11.02245,RGI50-11.02245,11,11: Central Europe,Glacier,Land-terminating,False,6,True,RGI link checked manually.
7.38888,45.9921,CH,GIETRO,367,CH0037,CHN012802014,,RGI40-11.02791,RGI50-11.02791,11,11: Central Europe,Glacier,Land-terminating,False,48,True,RGI link checked manually.
8.33019,46.4383,CH,GRIES,359,CH0003,CHN012405004,,RGI40-11.01876,RGI50-11.01876,11,11: Central Europe,Glacier,Land-terminating,False,54,True,RGI link checked manually.
8.01919,46.5028,CH,GROSSER ALETSCH,360,CH0005,CHN012306026,,RGI40-11.01450,RGI50-11.01450,11,11: Central Europe,Glacier,Land-terminating,False,60,False,RGI link checked manually.
7.9131,46.055,CH,HOHLAUB,3332,,,,RGI40-11.02690,RGI50-11.02690,11,11: Central Europe,Glacier,Land-terminating,False,59,True,RGI link checked manually.
7.9245,46.0649,CH,KESSJEN,393,CH0012,CHN012502033,,RGI40-11.02682,RGI50-11.02682,11,11: Central Europe,Glacier,Land-terminating,False,40,True,RGI link checked manually.
8.97739,46.8133,CH,LIMMERN,421,CH0078,CHR013500I 6,,RGI40-11.00918,RGI50-11.00918,11,11: Central Europe,Glacier,Land-terminating,False,38,True,RGI link checked manually.
9.38896,46.9603,CH,PIZOL,417,CH0081,CHR0135000D1,,RGI40-11.00638,RGI50-11.00638,11,11: Central Europe,Glacier,Land-terminating,False,8,True,RGI link checked manually.
7.51198,46.3839,CH,PLAINE MORTE,4246,,CHR01355F003,,RGI40-11.02072,RGI50-11.02072,11,11: Central Europe,Glacier,Land-terminating,False,5,True,RGI link checked manually.
8.988710000000001,46.833,CH,PLATTALVA,420,CH0114,CHR013500I 7,,RGI40-11.00892,RGI50-11.00892,11,11: Central Europe,Glacier,Land-terminating,False,42,True,RGI link checked manually.
8.3965,46.6236,CH,RHONE,473,CH0001,CHN012403003,,RGI40-11.01238,RGI50-11.01238,11,11: Central Europe,Glacier,Land-terminating,False,33,True,RGI link checked manually.
7.92806,46.0081,CH,SCHWARZBERG,395,CH0010,CHN012502024,,RGI40-11.02762,RGI50-11.02762,11,11: Central Europe,Glacier,Land-terminating,False,59,True,RGI link checked manually.
10.0766,46.8524,CH,SILVRETTA,408,CH0090,CHR013100G 5,,RGI40-11.00804,RGI50-11.00804,11,11: Central Europe,Glacier,Land-terminating,False,97,True,RGI link checked manually.
7.22536,46.3202,CH,TSANFLEURON,371,CH0033,CHN012202001,,RGI40-11.02249,RGI50-11.02249,11,11: Central Europe,Glacier,Land-terminating,False,5,True,RGI link checked manually.
-72.4562,-42.8274,CL,AMARILLO,3905,,,,RGI40-17.11634,RGI50-17.11634,17,17: Southern Andes,Ice cap,Land-terminating,False,8,True,RGI link checked manually.
-70.1338,-33.5804,CL,ECHAURREN NORTE,1344,CL0001B,CL1M0057D015,,RGI40-17.13957,RGI50-17.13957,17,17: Southern Andes,Glacier,Land-terminating,False,40,False,RGI link checked manually.
-70.0369,-29.3295,CL,ESPERANZA,3982,,,,RGI40-17.15116,RGI50-17.15116,17,17: Southern Andes,Glacier,Land-terminating,False,6,False,RGI link checked manually.
-70.0204,-29.3484,CL,GUANACO,3983,,CL1M03812071,,RGI40-17.15110,RGI50-17.15110,17,17: Southern Andes,Glacier,Land-terminating,False,12,False,RGI link checked manually.
-70.0247,-29.3346,CL,TORO 1,3980,,,,RGI40-17.15113,RGI50-17.15113,17,17: Southern Andes,Glacier,Land-terminating,False,6,False,RGI link checked manually.
-70.0275,-29.3323,CL,TORO 2,3981,,,,RGI40-17.15114,RGI50-17.15114,17,17: Southern Andes,Glacier,Land-terminating,False,6,False,RGI link checked manually.
90.447,30.193,CN,GURENHEKOU,3978,,,,RGI40-13.28839,RGI50-13.28839,13,13: Central Asia,Glacier,Land-terminating,False,5,False,RGI link checked manually.
101.916,29.584,CN,HAILUOGOU,849,CN0031,CN5K6120F003,,RGI40-15.07886,RGI50-15.07886,15,15: South Asia East,Glacier,Land-terminating,False,5,False,RGI link checked manually.
94.184,35.669000000000004,CN,MEIKUANG,3955,,,,RGI40-13.33648,RGI50-13.33648,13,13: Central Asia,Ice cap,Land-terminating,False,12,False,RGI link checked manually.
75.072,38.23,CN,MUZTAG ATA,3992,,,,RGI40-13.41896,RGI50-13.41896,13,13: Central Asia,Ice cap,Land-terminating,False,5,False,RGI link checked manually.
81.32300000000001,30.455,CN,NAIMONA NYI,3991,,,,RGI40-15.09026,RGI50-15.09026,15,15: South Asia East,Glacier,Land-terminating,False,5,False,RGI link checked manually.
96.975,29.386999999999997,CN,PARLUNG NO. 94,3987,CN0094,CN5O2820A010,,RGI40-15.11693,RGI50-15.11693,15,15: South Asia East,Glacier,Land-terminating,False,9,True,RGI link checked manually.
96.902,29.303,CN,PARLUNG ZANGBO: NO. 12,3986,CN0012,CN5O2820B000,,RGI40-15.11962,RGI50-15.11962,15,15: South Asia East,Glacier,Land-terminating,False,5,False,RGI link checked manually.
97.755,39.236999999999995,CN,QIYI,856,CN0003,CN Y0437C018,,RGI40-13.32330,RGI50-13.32330,13,13: Central Asia,Glacier,Land-terminating,False,14,False,RGI link checked manually.
86.81,43.111000000000004,CN,URUMQI GLACIER NO. 1 E-BRANCH,1511,CN0001,CN0Y07200010,,RGI40-13.45335,RGI50-13.45335,13,13: Central Asia,Glacier,Land-terminating,False,27,True,RGI link checked manually.
86.801,43.117,CN,URUMQI GLACIER NO. 1 W-BRANCH,1512,CN0002,CN0Y07200010,,RGI40-13.45334,RGI50-13.45334,13,13: Central Asia,Glacier,Land-terminating,False,27,True,RGI link checked manually.
92.135,33.171,CN,XIAO DONGKZMADI,1510,CN0038,,,RGI40-13.24556,RGI50-13.24556,13,13: Central Asia,Glacier,Land-terminating,False,22,False,RGI link checked manually.
-75.3715,4.80506,CO,CONEJERAS,2721,CO0033,,,RGI40-16.01355,RGI50-16.01355,16,16: Low Latitudes,Glacier,Land-terminating,False,10,True,RGI link checked manually.
10.982920789000001,47.415938931999996,DE,SCHNEEFERNER N,346,DE0001,DE4J14400001,,RGI40-11.03974,RGI50-11.03974,11,11: Central Europe,Glacier,Land-terminating,False,6,True,RGI link checked manually.
-78.1446,-0.489511,EC,ANTIZANA15ALPHA,1624,EC1DA15,EC1D30370015,,RGI40-16.01339,RGI50-16.01339,16,16: Low Latitudes,Glacier,Land-terminating,False,20,True,RGI link checked manually.
0.639342666,42.648979186999995,ES,MALADETA,942,ES9020,ES4O00122008,,RGI40-11.03818,RGI50-11.03818,11,11: Central Europe,Glacier,Land-terminating,False,24,True,RGI link checked manually.
6.99817,45.9429,FR,ARGENTIERE,354,FR0002,FRN010305A08,,RGI40-11.02835,RGI50-11.02835,11,11: Central Europe,Glacier,Land-terminating,False,39,False,RGI link checked manually.
6.62793,45.298,FR,GEBROULAZ,352,FR0009,FRN010406E06,,RGI40-11.03432,RGI50-11.03432,11,11: Central Europe,Glacier,Land-terminating,False,20,False,RGI link checked manually.
6.933910000000001,45.8755,FR,MER DE GLACE,353,FR0003,FRN010306A01,,RGI40-11.02923,RGI50-11.02923,11,11: Central Europe,Glacier,Land-terminating,False,8,False,RGI link checked manually.
-0.14122189599999999,42.771190643000004,FR,OSSOUE,2867,,,,RGI40-11.03841,RGI50-11.03841,11,11: Central Europe,Glacier,Land-terminating,False,13,False,RGI link checked manually.
6.160159999999999,45.1604,FR,SAINT SORLIN,356,FR0015,FRN010602B09,,RGI40-11.03503,RGI50-11.03503,11,11: Central Europe,Glacier,Land-terminating,False,58,False,RGI link checked manually.
6.1327300000000005,45.1325,FR,SARENNES,357,FR0029,FRN010603A02,,RGI40-11.03515,RGI50-11.03515,11,11: Central Europe,Glacier,Land-terminating,False,67,False,RGI link checked manually.
42.4732,43.1296,GE,TBILISA,724,GE3012,GE0 XXX00022,,RGI40-12.00807,RGI50-12.00807,12,12: Caucasus and Middle East,Glacier,Land-terminating,False,13,True,RGI link checked manually.
-50.3208,66.1325,GL,AMITSULOQ ICE CAP,232,GL0004,GL2U1DG16166,,RGI40-05.00446,RGI50-05.00446,05,05: Greenland,Glacier,Land-terminating,False,9,False,RGI link checked manually.
-20.8288,74.3778,GL,FREYA,3350,,,,RGI40-05.20030,RGI50-05.20030,05,05: Greenland,Glacier,Land-terminating,False,7,True,RGI link checked manually.
-37.8032,65.6957,GL,MITTIVAKKAT,1629,GL0019,GL02U3I00000,,RGI40-05.11186,RGI50-05.11186,05,05: Greenland,Glacier,Land-terminating,False,20,True,RGI link checked manually.
-52.1262,65.6,GL,QAPIARFIUP SER.,238,GL0009,GL2U1DB10003,,RGI40-05.00115,RGI50-05.00115,05,05: Greenland,Glacier,Land-terminating,False,5,False,RGI link checked manually.
-45.3055,61.4421,GL,VALHALTINDE,240,GL0001,GL2U1AG05008,,RGI40-05.05149,RGI50-05.05149,05,05: Greenland,Glacier,Land-terminating,False,5,False,RGI link checked manually.
88.684351605,27.959920148000002,IN,CHANGMEKHANGPU,1045,IN2522,IN05P2500022,,RGI40-15.02942,RGI50-15.02942,15,15: South Asia East,Glacier,Land-terminating,False,7,False,RGI link checked manually.
77.507513941,32.224215541999996,IN,CHHOTA SHIGRI,2921,,,,RGI40-14.15990,RGI50-14.15990,14,14: South Asia West,Glacier,Land-terminating,False,14,True,RGI link checked manually.
78.825119019,30.842954635999998,IN,DOKRIANI,3454,,,,RGI40-15.07605,RGI50-15.07605,15,15: South Asia East,Glacier,Land-terminating,False,6,False,RGI link checked manually.
79.894082471,30.557780418000004,IN,DUNAGIRI,1047,IN0191,IN5O12202191,,RGI40-15.06777,RGI50-15.06777,15,15: South Asia East,Glacier,Land-terminating,False,6,False,RGI link checked manually.
78.521963702,31.378255834,IN,GOR GARANG,3929,,,,RGI40-14.12365,RGI50-14.12365,14,14: South Asia West,Glacier,Land-terminating,False,9,False,RGI link checked manually.
77.373833286,32.23484894,IN,HAMTAH,3044,,IN5Q21212180,,RGI40-14.15536,RGI50-14.15536,14,14: South Asia West,Glacier,Land-terminating,False,6,False,RGI link checked manually.
75.537165453,34.15943632,IN,NEH NAR,3930,,,,RGI40-14.19543,RGI50-14.19543,14,14: South Asia West,Glacier,Land-terminating,False,9,False,RGI link checked manually.
78.349378203,31.292291095,IN,SHAUNE GARANG,1048,IN0084,IN5Q220 1984,,RGI40-14.12323,RGI50-14.12323,14,14: South Asia West,Glacier,Land-terminating,False,13,False,RGI link checked manually.
79.674856689,30.718461815999998,IN,TIPRA BANK,1049,IN0004,IN5O12200004,,RGI40-15.06557,RGI50-15.06557,15,15: South Asia East,Glacier,Land-terminating,False,7,False,RGI link checked manually.
-16.4767,64.2666,IS,BREIDAMJOEKULL E. B.,3062,IS1126B,ISV   10126B,,RGI40-06.00483,RGI50-06.00483,06,06: Iceland,Ice cap,Land-terminating,False,7,False,RGI link checked manually.
-16.2675,64.5867,IS,BRUARJOEKULL,3067,IS2400,IS0000V02400,,RGI40-06.00377,RGI50-06.00377,06,06: Iceland,Ice cap,Land-terminating,False,21,False,RGI link checked manually.
-17.0539,64.6745,IS,DYNGJUJOEKULL,3068,IS2600,,,RGI40-06.00477,RGI50-06.00477,06,06: Iceland,Ice cap,Land-terminating,False,14,False,RGI link checked manually.
-15.6083,64.6284,IS,EYJABAKKAJOEKULL,3069,IS2300,IS0000V02300,,RGI40-06.00472,RGI50-06.00472,06,06: Iceland,Glacier,Land-terminating,False,20,False,RGI link checked manually.
-18.6422,64.7989,IS,HOFSJOEKULL E,3088,IS0510B,IS0000V00510,,RGI40-06.00234,RGI50-06.00234,06,06: Iceland,Ice cap,Land-terminating,False,26,False,RGI link checked manually.
-18.9072,64.9014,IS,HOFSJOEKULL N,3089,IS0510A,IS0000V00510,,RGI40-06.00238,RGI50-06.00238,06,06: Iceland,Ice cap,Land-terminating,False,27,False,RGI link checked manually.
-19.0241,64.757,IS,HOFSJOEKULL SW,3090,IS0510C,IS0000V00510,,RGI40-06.00236,RGI50-06.00236,06,06: Iceland,Ice cap,Land-terminating,False,25,False,RGI link checked manually.
-17.7174,64.5628,IS,KOELDUKVISLARJ.,3096,IS2700,,,RGI40-06.00424,RGI50-06.00424,06,06: Iceland,Ice cap,Land-terminating,False,20,False,RGI link checked manually.
-20.0311,64.6423,IS,LANGJOEKULL ICE CAP,3660,,,,RGI40-06.00310,RGI50-06.00310,06,06: Iceland,Ice cap,Land-terminating,False,18,False,RGI link checked manually.
-17.927,64.3475,IS,TUNGNAARJOEKULL,3126,IS2214,IS0000V02214,,RGI40-06.00443,RGI50-06.00443,06,06: Iceland,Ice cap,Land-terminating,False,19,False,RGI link checked manually.
13.56671,42.47054,IT,CALDERONE,1107,IT1006,,,RGI40-11.03967,RGI50-11.03967,11,11: Central Europe,Glacier,Land-terminating,False,20,True,RGI link checked manually.
10.1119,46.4296,IT,CAMPO SETT.,1106,IT0997,IT4J14311006,,RGI40-11.01930,RGI50-11.01930,11,11: Central Europe,Glacier,Land-terminating,False,5,False,RGI link checked manually.
10.7085,46.4512,IT,CARESER,635,IT0701,IT4L00102519,,RGI40-11.01834,RGI50-11.01834,11,11: Central Europe,Glacier,Land-terminating,False,49,True,RGI link checked manually.
7.3898399999999995,45.5181,IT,CIARDONEY,1264,IT0081,IT4L01052003,,RGI40-11.03254,RGI50-11.03254,11,11: Central Europe,Glacier,Land-terminating,False,23,True,RGI link checked manually.
10.770999999999999,46.4838,IT,FONTANA BIANCA / WEISSBRUNNF.,1507,IT0713,IT4L00110103,,RGI40-11.01704,RGI50-11.01704,11,11: Central Europe,Glacier,Land-terminating,False,31,True,RGI link checked manually.
7.2204,45.4757,IT,GRAND ETRET,1238,IT0134,IT4L01313012,,RGI40-11.03298,RGI50-11.03298,11,11: Central Europe,Glacier,Land-terminating,False,13,True,RGI link checked manually.
10.6115,46.4674,IT,LUNGA (VEDRETTA) / LANGENF.,661,IT0733,IT4L00112128,,RGI40-11.01776,RGI50-11.01776,11,11: Central Europe,Glacier,Land-terminating,False,12,True,RGI link checked manually.
9.989410000000001,46.0754,IT,LUPO,1138,IT0543,IT4L01132016,,RGI40-11.02659,RGI50-11.02659,11,11: Central Europe,Glacier,Land-terminating,False,5,False,RGI link checked manually.
11.1528,46.9566,IT,MALAVALLE (VEDR. DI) / UEBELTALF.,672,IT0875,IT4L00121108,,RGI40-11.00619,RGI50-11.00619,11,11: Central Europe,Glacier,Land-terminating,False,14,True,RGI link checked manually.
11.2247,46.9656,IT,PENDENTE (VEDR.) / HANGENDERF.,675,IT0876,IT4L00121110,,RGI40-11.00603,RGI50-11.00603,11,11: Central Europe,Glacier,Land-terminating,False,20,True,RGI link checked manually.
12.0965,46.9069,IT,RIES OCC. (VEDR. DI) / RIESERF. WESTL.,645,IT0930,IT4L00123312,,RGI40-11.00647,RGI50-11.00647,11,11: Central Europe,Glacier,Land-terminating,False,7,True,RGI link checked manually.
10.5127,46.348,IT,SFORZELLINA,667,IT0516,IT4L01137036,,RGI40-11.02214,RGI50-11.02214,11,11: Central Europe,Glacier,Land-terminating,False,14,False,RGI link checked manually.
9.363539999999999,46.5056,IT,SURETTA MERID.,2488,IT0371,IT4L01113007,,RGI40-11.01662,RGI50-11.01662,11,11: Central Europe,Glacier,Land-terminating,False,5,False,RGI link checked manually.
7.2789399999999995,45.5592,IT,TIMORION,1282,IT0126,IT4L01313003,,RGI40-11.03191,RGI50-11.03191,11,11: Central Europe,Glacier,Land-terminating,False,15,False,RGI link checked manually.
37.314,-0.156806,KE,LEWIS,695,KE0008,KEE021D00001,,RGI40-16.01638,RGI50-16.01638,16,16: Low Latitudes,Glacier,Land-terminating,False,22,True,RGI link checked manually.
71.56986236600001,39.609699249,KG,ABRAMOV,732,KG4101,KGXA31000040,,RGI40-13.18096,RGI50-13.18096,13,13: Central Asia,Glacier,Land-terminating,False,33,True,RGI link checked manually.
77.749273443,41.786813441,KG,BATYSH SOOK/SYEK ZAPADNIY,781,KG5082,KG05XXX00082,,RGI40-13.06974,RGI50-13.06974,13,13: Central Asia,Glacier,Land-terminating,False,10,True,RGI link checked manually.
74.49766036300001,42.454479253,KG,GOLUBIN,753,KG5060,KG0X0C100250,,RGI40-13.11609,RGI50-13.11609,13,13: Central Asia,Glacier,Land-terminating,False,30,True,RGI link checked manually.
78.304753802,42.146142231999995,KG,KARA-BATKAK,813,KG5080,KG0X00C00265,,RGI40-13.06359,RGI50-13.06359,13,13: Central Asia,Glacier,Land-terminating,False,44,True,RGI link checked manually.
77.68168298399999,41.876732163,KG,NO.131,782,KG5081,KG05XXX00081,,RGI40-13.06828,RGI50-13.06828,13,13: Central Asia,Glacier,Land-terminating,False,5,True,RGI link checked manually.
78.181348805,41.826979308,KG,SARY TOR (NO.356),805,KG5106,KG0 XXX00019,,RGI40-13.08055,RGI50-13.08055,13,13: Central Asia,Glacier,Land-terminating,False,6,True,RGI link checked manually.
77.09641025,43.050292445,KZ,IGLI TUYUKSU,816,KZ5076,KZ0XB2200108,,RGI40-13.08782,RGI50-13.08782,13,13: Central Asia,Glacier,Land-terminating,False,23,False,RGI link checked manually.
77.107482796,43.075781418999995,KZ,MANSHUK MAMETOVA,811,KZ5091,KZ0XB2200112,,RGI40-13.08534,RGI50-13.08534,13,13: Central Asia,Glacier,Land-terminating,False,23,False,RGI link checked manually.
77.109750374,43.021278228999996,KZ,MAYAKOVSKIY,808,KZ5094,KZ0XB2200111,,RGI40-13.08615,RGI50-13.08615,13,13: Central Asia,Glacier,Land-terminating,False,15,False,RGI link checked manually.
77.064330256,43.057823598,KZ,MOLODEZHNIY,812,KZ5090,KZ0XB2200105,,RGI40-13.08781,RGI50-13.08781,13,13: Central Asia,Glacier,Land-terminating,False,23,False,RGI link checked manually.
80.238317299,45.095799218,KZ,MURAVLEV,796,KZ6002,KZ0 XXX00020,,RGI40-13.05496,RGI50-13.05496,13,13: Central Asia,Glacier,Land-terminating,False,13,True,RGI link checked manually.
77.102104419,43.062361311000004,KZ,ORDZHONIKIDZE,809,KZ5093,KZ0XB2200110,,RGI40-13.08531,RGI50-13.08531,13,13: Central Asia,Glacier,Land-terminating,False,15,False,RGI link checked manually.
77.07974015,43.024608168,KZ,PARTIZAN,807,KZ5095,KZ0XB2200109,,RGI40-13.08533,RGI50-13.08533,13,13: Central Asia,Glacier,Land-terminating,False,15,False,RGI link checked manually.
80.228503062,45.082519212,KZ,SHUMSKIY,797,KZ6001,KZ0 XXX00024,,RGI40-13.05504,RGI50-13.05504,13,13: Central Asia,Glacier,Land-terminating,False,25,True,RGI link checked manually.
77.080587306,43.043653004,KZ,TS.TUYUKSUYSKIY,817,KZ5075,KZ0XB2200107,,RGI40-13.08624,RGI50-13.08624,13,13: Central Asia,Glacier,Land-terminating,False,59,True,RGI link checked manually.
77.05140511100001,43.071075201000006,KZ,VISYACHIY-1-2,806,KZ5096,KZ0XB2200103,,RGI40-13.08814,RGI50-13.08814,13,13: Central Asia,Glacier,Land-terminating,False,15,False,RGI link checked manually.
77.07363205600001,43.051831778,KZ,ZOYA KOSMODEMYANSKAYA,810,KZ5092,KZ0XB2200106,,RGI40-13.08783,RGI50-13.08783,13,13: Central Asia,Glacier,Land-terminating,False,15,False,RGI link checked manually.
5.64784,61.7513,NO,AALFOTBREEN,317,NO36204,NOA000B0O001,,RGI40-08.00083,RGI50-08.00083,08,08: Scandinavia,Glacier,Land-terminating,False,53,True,RGI link checked manually.
7.35572,61.8156,NO,AUSTDALSBREEN,321,NO37323,NO4A000A4023,,RGI40-08.02489,RGI50-08.02489,08,08: Scandinavia,Ice cap,Land-terminating,False,28,True,RGI link checked manually.
8.491010000000001,61.5538,NO,AUSTRE MEMURUBREEN,1317,NO0053A,NO4A000AB033,,RGI40-08.01655,RGI50-08.01655,08,08: Scandinavia,Glacier,Land-terminating,False,5,True,RGI link checked manually.
6.43195,60.0667,NO,BLAABREEN & RUKLEBREEN,3803,,,,RGI40-08.01428,RGI50-08.01428,08,08: Scandinavia,Glacier,Land-terminating,False,6,False,RGI link checked manually.
17.8514,68.3407,NO,BLAAISEN,1328,NO7421,NO4A000DZ011,,RGI40-08.00710,RGI50-08.00710,08,08: Scandinavia,Glacier,Land-terminating,False,6,True,RGI link checked manually.
6.26211,59.9832,NO,BLOMSTERSKARDSBREEN,1321,NO1930,,,RGI40-08.01431,RGI50-08.01431,08,08: Scandinavia,Ice cap,Land-terminating,False,7,False,RGI link checked manually.
6.32268,60.036,NO,BONDHUSBREA,318,NO20408,NO4A000AJ002,,RGI40-08.01432,RGI50-08.01432,08,08: Scandinavia,Ice cap,Land-terminating,False,5,True,RGI link checked manually.
6.36572,60.0727,NO,BREIDABLIKKBREA,2671,,NO4A000AJ001,,RGI40-08.01439,RGI50-08.01439,08,08: Scandinavia,Glacier,Land-terminating,False,17,True,RGI link checked manually.
13.8583,66.6565,NO,ENGABREEN,298,NO67011,NO4A000C4011,,RGI40-08.00431,RGI50-08.00431,08,08: Scandinavia,Ice cap,Land-terminating,False,46,True,RGI link checked manually.
6.39826,60.0828,NO,GRAAFJELLSBREA,1320,NO2051,NO4A000AJ010,,RGI40-08.01433,RGI50-08.01433,08,08: Scandinavia,Glacier,Land-terminating,False,18,True,RGI link checked manually.
8.598889999999999,61.6562,NO,GRAASUBREEN,299,NO0547,NO4A000AB047,,RGI40-08.01707,RGI50-08.01707,08,08: Scandinavia,Glacier,Land-terminating,False,54,True,RGI link checked manually.
5.68093,61.7482,NO,HANSEBREEN,322,NO36206,NO4A000BO01A,,RGI40-08.00082,RGI50-08.00082,08,08: Scandinavia,Ice cap,Land-terminating,False,26,True,RGI link checked manually.
7.67852,61.6906,NO,HARBARDSBREEN,2320,NO30704,NO4A000A2004,,RGI40-08.01736,RGI50-08.01736,08,08: Scandinavia,Glacier,Land-terminating,False,5,False,RGI link checked manually.
8.43862,61.5587,NO,HELLSTUGUBREEN,300,NO0511,NO4A000AD011,,RGI40-08.02182,RGI50-08.02182,08,08: Scandinavia,Glacier,Land-terminating,False,54,True,RGI link checked manually.
13.6359,66.4532,NO,HOEGTUVBREEN,286,NO5507,NO4A000CX007,,RGI40-08.02616,RGI50-08.02616,08,08: Scandinavia,Glacier,Land-terminating,False,7,True,RGI link checked manually.
6.551130000000001,61.4165,NO,JOSTEFONN,1676,,NO4A000A8009,,RGI40-08.02135,RGI50-08.02135,08,08: Scandinavia,Ice cap,Land-terminating,False,5,True,RGI link checked manually.
21.7402,70.1308,NO,LANGFJORDJOEKELEN,323,NO85008,NO4A000ET008,,RGI40-08.02022,RGI50-08.02022,08,08: Scandinavia,Glacier,Land-terminating,False,26,True,RGI link checked manually.
7.1283199999999995,61.7087,NO,NIGARDSBREEN,290,NO31014,NO4A000A4014,,RGI40-08.02419,RGI50-08.02419,08,08: Scandinavia,Ice cap,Land-terminating,False,54,True,RGI link checked manually.
14.2959,66.0209,NO,OKSTINDBREEN,324,NO64902,NO4A000CV001,,RGI40-08.00243,RGI50-08.00243,08,08: Scandinavia,Glacier,Land-terminating,False,12,True,RGI link checked manually.
7.48618,60.6368,NO,OMNSBREEN,3805,,,,RGI40-08.01520,RGI50-08.01520,08,08: Scandinavia,Glacier,Land-terminating,False,5,False,RGI link checked manually.
7.380489999999999,60.5392,NO,REMBESDALSKAAKA,2296,NO22303,NO4A000AO001,,RGI40-08.01501,RGI50-08.01501,08,08: Scandinavia,Ice cap,Land-terminating,False,53,True,RGI link checked manually.
16.0547,67.2967,NO,RUNDVASSBREEN,2670,,NO4A000DI022,,RGI40-08.00570,RGI50-08.00570,08,08: Scandinavia,Ice cap,Land-terminating,False,7,True,RGI link checked manually.
8.14092,61.5748,NO,STORBREEN,302,NO0541,NOA000A0D041,,RGI40-08.01666,RGI50-08.01666,08,08: Scandinavia,Glacier,Land-terminating,False,67,True,RGI link checked manually.
6.804860000000001,61.5116,NO,STORE SUPPHELLEBREEN,287,NO33014,NO4A000A8015,,RGI40-08.02504,RGI50-08.02504,08,08: Scandinavia,Glacier,Land-terminating,False,11,False,RGI link checked manually.
14.0211,66.6713,NO,STORGLOMBREEN,297,NO67313,NO4A000C7013,,RGI40-08.00472,RGI50-08.00472,08,08: Scandinavia,Ice cap,Land-terminating,False,10,True,RGI link checked manually.
17.9114,68.2182,NO,STORSTEINSFJELLBREEN,1329,NO7381,NO4A000DW011,,RGI40-08.00666,RGI50-08.00666,08,08: Scandinavia,Glacier,Land-terminating,False,10,True,RGI link checked manually.
13.7593,66.5575,NO,SVARTISHEIBREEN,320,NO65509,NO4A000CX009,,RGI40-08.00433,RGI50-08.00433,08,08: Scandinavia,Glacier,Land-terminating,False,8,True,RGI link checked manually.
14.4446,66.7155,NO,TROLLBERGDALSBREEN,316,NO68507,NO4A000DE007,,RGI40-08.00411,RGI50-08.00411,08,08: Scandinavia,Glacier,Land-terminating,False,11,True,RGI link checked manually.
7.054889999999999,61.6101,NO,TUNSBERGDALSBREEN,1316,NO3100,NO4A000A4007,,RGI40-08.02379,RGI50-08.02379,08,08: Scandinavia,Glacier,Land-terminating,False,7,True,RGI link checked manually.
86.556320409,27.715784606,NP,AX010,906,NP0005,NP0 XXX00005,,RGI40-15.03507,RGI50-15.03507,15,15: South Asia East,Glacier,Land-terminating,False,5,True,RGI link checked manually.
86.897669131,27.709259601,NP,MERA,3996,,,,RGI40-15.03591,RGI50-15.03591,15,15: South Asia East,Ice cap,Land-terminating,False,7,False,RGI link checked manually.
86.79068870299999,27.898420495,NP,POKALDE,3997,,,,RGI40-15.03875,RGI50-15.03875,15,15: South Asia East,Glacier,Land-terminating,False,5,False,RGI link checked manually.
169.437,-44.0715,NZ,BREWSTER,1597,,NZ0868C20000,,RGI40-18.01130,RGI50-18.01130,18,18: New Zealand,Glacier,Land-terminating,False,10,True,RGI link checked manually.
170.926,-43.1326,NZ,IVORY,900,,NZ0090109000,,RGI40-18.03357,RGI50-18.03357,18,18: New Zealand,Glacier,Land-terminating,False,6,False,RGI link checked manually.
-77.6279,-8.96265,PE,ARTESONRAJU,3292,PE0003,PEP005C0GH01,,RGI40-16.02444,RGI50-16.02444,16,16: Low Latitudes,Glacier,Land-terminating,False,10,True,RGI link checked manually.
-76.7207,-10.4787,PE,SANTA ROSA,225,PE0006,PEP00470AEC8,,RGI40-16.01756,RGI50-16.01756,16,16: Low Latitudes,Glacier,Land-terminating,False,6,False,RGI link checked manually.
-77.2709,-9.65293,PE,YANAMAREY,226,PE0004,PEP005C0VAC2,,RGI40-16.02086,RGI50-16.02086,16,16: Low Latitudes,Glacier,Land-terminating,False,20,True,RGI link checked manually.
76.8939,35.4284,PK,SIACHEN,3666,,,,RGI40-14.07524,RGI50-14.07524,14,14: South Asia West,Glacier,Land-terminating,False,5,False,RGI link checked manually.
43.083999999999996,43.0332,RU,BEZENGI,703,RU3006,RUG003700001,,RGI40-12.01252,RGI50-12.01252,12,12: Caucasus and Middle East,Glacier,Land-terminating,False,15,False,RGI link checked manually.
86.703071594,49.813026428,RU,BOLSHOI BEREL,3950,,,,RGI40-10.01121,RGI50-10.01121,10,10: North Asia,Glacier,Land-terminating,False,5,False,RGI link checked manually.
42.7612,43.1944,RU,DJANKUAT,726,RU3010,RUG003700062,,RGI40-12.01132,RGI50-12.01132,12,12: Caucasus and Middle East,Glacier,Land-terminating,False,48,True,RGI link checked manually.
42.4674,43.3121,RU,GARABASHI,761,RU3031,RU4G00307011,,RGI40-12.00161,RGI50-12.00161,12,12: Caucasus and Middle East,Glacier,Land-terminating,False,31,True,RGI link checked manually.
66.000305176,67.57893371600001,RU,IGAN,730,RU2001,RU00A0200027,,RGI40-10.05087,RGI50-10.05087,10,10: North Asia,Glacier,Land-terminating,False,24,False,RGI link checked manually.
43.0522,43.0776,RU,KELBASHI,3917,,,,RGI40-12.01198,RGI50-12.01198,12,12: Caucasus and Middle East,Glacier,Land-terminating,False,5,False,RGI link checked manually.
41.8439,43.2251,RU,KHAKEL,700,RU3003,RU0H00100173,,RGI40-12.01297,RGI50-12.01297,12,12: Caucasus and Middle East,Glacier,Land-terminating,False,6,False,RGI link checked manually.
42.7668,43.2143,RU,KOIAVGAN,3957,,,,RGI40-12.00632,RGI50-12.00632,12,12: Caucasus and Middle East,Glacier,Land-terminating,False,7,False,
161.802352905,54.830718993999994,RU,KORYTO,791,RU8003,RU0 XXX00007,,RGI40-10.04358,RGI50-10.04358,10,10: North Asia,Glacier,Land-terminating,False,14,True,RGI link checked manually.
87.69024658200001,50.080078125,RU,LEVIY AKTRU,794,RU7102,RU0A12500128,,RGI40-10.01737,RGI50-10.01737,10,10: North Asia,Glacier,Land-terminating,False,36,True,RGI link checked manually.
87.745521545,50.049674988,RU,MALIY AKTRU,795,RU7100,RU0A12500126,,RGI40-10.01732,RGI50-10.01732,10,10: North Asia,Glacier,Land-terminating,False,51,True,RGI link checked manually.
86.71026611299999,49.82395172100001,RU,MALYY BERELSKIY,830,RU7083,RU0A31500116,,RGI40-10.01107,RGI50-10.01107,10,10: North Asia,Glacier,Land-terminating,False,5,False,RGI link checked manually.
41.4156,43.3638,RU,MARUKHSKIY,727,RU3001,RU0 00100108,,RGI40-12.00960,RGI50-12.00960,12,12: Caucasus and Middle East,Glacier,Land-terminating,False,13,True,RGI link checked manually.
158.180389404,52.46206665,RU,MUTNOVSKIY NE,788,RU8011,RU0 XXX00004,,RGI40-10.03941,RGI50-10.03941,10,10: North Asia,Glacier,Land-terminating,False,5,False,RGI link checked manually.
158.15740966799999,52.452796936000006,RU,MUTNOVSKIY SW,787,RU8012,RU0 XXX00003,,RGI40-10.03944,RGI50-10.03944,10,10: North Asia,Glacier,Land-terminating,False,5,False,RGI link checked manually.
140.865356445,62.588794708,RU,NO.31,3534,,,,RGI40-10.03264,RGI50-10.03264,10,10: North Asia,Glacier,Land-terminating,False,13,False,RGI link checked manually.
65.78010559100001,67.636535645,RU,OBRUCHEV,729,RU2002,RU00A0200026,,RGI40-10.05085,RGI50-10.05085,10,10: North Asia,Glacier,Land-terminating,False,24,False,RGI link checked manually.
87.69741058299999,50.061340332,RU,PRAVIY AKTRU,831,RU7101,RU0A12500127,,RGI40-10.01735,RGI50-10.01735,10,10: North Asia,Glacier,Land-terminating,False,11,True,RGI link checked manually.
43.8232,42.7537,RU,TSEYA,704,RU3007,RUG003300002,,RGI40-12.01302,RGI50-12.01302,12,12: Caucasus and Middle East,Glacier,Land-terminating,False,11,False,RGI link checked manually.
42.7749,43.2009,RU,VISYACHIY,3958,,,,RGI40-12.00335,RGI50-12.00335,12,12: Caucasus and Middle East,Glacier,Land-terminating,False,7,False,
87.780303955,50.047698975,RU,VODOPADNIY (NO.125),780,RU7105,RU5A12500105,,RGI40-10.01708,RGI50-10.01708,10,10: North Asia,Glacier,Land-terminating,False,36,True,RGI link checked manually.
18.3207,68.358,SE,KARSOJIETNA,330,SE0798,SEB000E0V019,,RGI40-08.00016,RGI50-08.00016,08,08: Scandinavia,Glacier,Land-terminating,False,13,False,RGI link checked manually.
18.6813,68.0815,SE,MARMAGLACIAEREN,1461,SE0799,SE4B000EZ001,,RGI40-08.00760,RGI50-08.00760,08,08: Scandinavia,Glacier,Land-terminating,False,23,True,RGI link checked manually.
17.6462,67.1735,SE,PARTEJEKNA,327,SE0763,SEB000E08002,,RGI40-08.00928,RGI50-08.00928,08,08: Scandinavia,Glacier,Land-terminating,False,6,True,RGI link checked manually.
18.4909,67.9099,SE,RABOTS GLACIAER,334,SE0785,SEB000E01016,,RGI40-08.00013,RGI50-08.00013,08,08: Scandinavia,Glacier,Land-terminating,False,31,True,RGI link checked manually.
18.0544,68.0836,SE,RIUKOJIETNA,342,SE0790,SE4A000DW065,,RGI40-08.00751,RGI50-08.00751,08,08: Scandinavia,Ice cap,Land-terminating,False,26,True,RGI link checked manually.
18.5604,67.9042,SE,STORGLACIAEREN,332,SE0788,SEB000E00005,,RGI40-08.02637,RGI50-08.02637,08,08: Scandinavia,Glacier,Land-terminating,False,69,True,RGI link checked manually.
18.6446,67.9349,SE,TARFALAGLACIAEREN,326,SE0791,SE4B000E0011,,RGI40-08.00801,RGI50-08.00801,08,08: Scandinavia,Glacier,Land-terminating,False,19,True,RGI link checked manually.
11.8309,78.8876,SJ,AUSTRE BROEGGERBREEN,292,SJ15504,SJW015505006,,RGI40-07.00504,RGI50-07.00504,07,07: Svalbard,Glacier,Land-terminating,False,49,True,RGI link checked manually.
12.1614,78.87100000000001,SJ,AUSTRE LOVENBREEN,3812,,SJ4W01505000,,RGI40-07.00496,RGI50-07.00496,07,07: Svalbard,Glacier,Land-terminating,False,7,False,RGI link checked manually.
16.258,78.6982,SJ,BERTILBREEN,3755,,,,RGI40-07.00593,RGI50-07.00593,07,07: Svalbard,Glacier,Land-terminating,False,11,False,RGI link checked manually.
15.6267,78.1281,SJ,BOGERBREEN,3914,,,,RGI40-07.01132,RGI50-07.01132,07,07: Svalbard,Glacier,Land-terminating,False,12,False,RGI link checked manually.
18.8089,78.086,SJ,DAUDBREEN,3915,,,,RGI40-07.00382,RGI50-07.00382,07,07: Svalbard,Glacier,Land-terminating,False,6,False,RGI link checked manually.
15.2378,77.461,SJ,FINSTERWALDERBREEN,3486,SJ13202,SJ4W00103202,,RGI40-07.00231,RGI50-07.00231,07,07: Svalbard,Glacier,Land-terminating,False,18,False,RGI link checked manually.
14.4077,77.8358,SJ,FRIDTJOVBREEN,3494,SJ13708,SJ4W00103708,,RGI40-07.01100,RGI50-07.01100,07,07: Svalbard,Glacier,Marine-terminating,True,5,False,RGI link checked manually.
15.5799,77.0748,SJ,HANSBREEN,306,SJ12419,SJW012404019,,RGI40-07.00240,RGI50-07.00240,07,07: Svalbard,Glacier,Marine-terminating,True,24,True,RGI link checked manually.
12.1249,78.6651,SJ,IRENEBREEN,2669,SJ15402,,,RGI40-07.00490,RGI50-07.00490,07,07: Svalbard,Glacier,Land-terminating,False,14,False,RGI link checked manually.
13.1481,78.7872,SJ,KONGSVEGEN,1456,SJ15510,SJ4W00145510,,RGI40-07.01481,RGI50-07.01481,07,07: Svalbard,Glacier,Land-terminating,False,29,True,RGI link checked manually.
13.3845,78.9916,SJ,KRONEBREEN,3504,SJ15511,SJ4W00105511,,RGI40-07.01464,RGI50-07.01464,07,07: Svalbard,Ice cap,Land-terminating,False,7,False,RGI link checked manually.
15.4657,78.1728,SJ,LONGYEARBREEN,3913,,,,RGI40-07.01107,RGI50-07.01107,07,07: Svalbard,Glacier,Land-terminating,False,6,False,RGI link checked manually.
12.0311,78.8779,SJ,MIDTRE LOVENBREEN,291,SJ15506,SJ4W01505007,,RGI40-07.00493,RGI50-07.00493,07,07: Svalbard,Glacier,Land-terminating,False,48,True,RGI link checked manually.
13.9535,78.0409,SJ,VOERINGBREEN,3912,,,,RGI40-07.01060,RGI50-07.01060,07,07: Svalbard,Glacier,Land-terminating,False,16,False,RGI link checked manually.
12.0692,78.6774,SJ,WALDEMARBREEN,2307,SJ15403,,,RGI40-07.00492,RGI50-07.00492,07,07: Svalbard,Glacier,Land-terminating,False,21,True,RGI link checked manually.
-123.694,47.81,US,BLUE GLACIER,210,US2126,USM000B00114,,RGI40-02.13924,RGI50-02.13924,02,02: Western Canada and US,Glacier,Land-terminating,False,45,False,RGI link checked manually.
-121.353,47.97,US,COLUMBIA (2057),76,US2057,US2M00332004,,RGI40-02.00837,RGI50-02.00837,02,02: Western Canada and US,Glacier,Land-terminating,False,32,True,RGI link checked manually.
-121.161,47.5591,US,DANIELS,83,US2052,US2M10015004,,RGI40-02.00686,RGI50-02.00686,02,02: Western Canada and US,Glacier,Land-terminating,False,32,False,RGI link checked manually.
-121.82700000000001,48.7489,US,EASTON,1367,US2008,,,RGI40-02.01305,RGI50-02.01305,02,02: Western Canada and US,Glacier,Land-terminating,False,26,False,RGI link checked manually.
-121.68,45.3805,US,ELIOT,3919,,,,RGI40-02.13914,RGI50-02.13914,02,02: Western Canada and US,Glacier,Land-terminating,False,15,False,RGI link checked manually.
-121.713,46.8647,US,EMMONS,203,US2022,USM000B00127,,RGI40-02.00651,RGI50-02.00651,02,02: Western Canada and US,Glacier,Land-terminating,False,10,False,RGI link checked manually.
-137.039916992,58.793186188,US,GILMAN,138,US1321,USN000C00063,,RGI40-01.20830,RGI50-01.20830,01,01: Alaska,Glacier,Marine-terminating,True,5,False,RGI link checked manually.
-145.42700000000002,63.281000000000006,US,GULKANA,90,US0200,US0001200002,,RGI40-01.00570,RGI50-01.00570,01,01: Alaska,Glacier,Land-terminating,False,49,True,RGI link checked manually.
-134.349,58.38,US,LEMON CREEK,3334,,,,RGI40-01.01104,RGI50-01.01104,01,01: Alaska,Glacier,Land-terminating,False,63,True,RGI link checked manually.
-121.62200000000001,48.8259,US,LOWER CURTIS,77,US2055,US2M00212004,,RGI40-02.01356,RGI50-02.01356,02,02: Western Canada and US,Glacier,Land-terminating,False,32,False,RGI link checked manually.
-120.895,48.1717,US,LYMAN,3340,,,,RGI40-02.00874,RGI50-02.00874,02,02: Western Canada and US,Glacier,Land-terminating,False,14,False,RGI link checked manually.
-143.847625732,69.302070618,US,MCCALL,1388,US0001,,,RGI40-01.02228,RGI50-01.02228,01,01: Alaska,Glacier,Land-terminating,False,9,True,RGI link checked manually.
-121.744,46.8256,US,NISQUALLY,201,US2027,USM000B00129,,RGI40-02.00644,RGI50-02.00644,02,02: Western Canada and US,Glacier,Land-terminating,False,10,False,RGI link checked manually.
-121.527,48.6735,US,NOISY CREEK,1666,US2078,,,RGI40-02.01170,RGI50-02.01170,02,02: Western Canada and US,Glacier,Land-terminating,False,22,False,RGI link checked manually.
-121.09299999999999,48.5729,US,NORTH KLAWATTI,1664,US2076,,,RGI40-02.01093,RGI50-02.01093,02,02: Western Canada and US,Glacier,Land-terminating,False,22,False,RGI link checked manually.
-121.777,48.7989,US,RAINBOW,79,US2003,US2M00B11008,,RGI40-02.01299,RGI50-02.01299,02,02: Western Canada and US,Glacier,Land-terminating,False,32,False,RGI link checked manually.
-120.79,48.41,US,SANDALEE,1667,US2079,,,RGI40-02.00971,RGI50-02.00971,02,02: Western Canada and US,Glacier,Land-terminating,False,21,False,RGI link checked manually.
-121.76899999999999,48.8142,US,SHOLES,3295,,US2M00B00000,,RGI40-02.01295,RGI50-02.01295,02,02: Western Canada and US,Glacier,Land-terminating,False,26,False,RGI link checked manually.
-121.24,48.9769,US,SILVER,1665,US2077,,,RGI40-02.01464,RGI50-02.01464,02,02: Western Canada and US,Glacier,Land-terminating,False,22,False,RGI link checked manually.
-121.059,48.3574,US,SOUTH CASCADE,205,US2013,US0M10000121,,RGI40-02.00941,RGI50-02.00941,02,02: Western Canada and US,Glacier,Land-terminating,False,59,True,RGI link checked manually.
-113.756,48.625,US,SPERRY,218,US5001,US0M12200135,,RGI40-02.01146,RGI50-02.01146,02,02: Western Canada and US,Glacier,Land-terminating,False,11,False,RGI link checked manually.
-121.031,48.4136,US,SPIDER,3941,,,,RGI40-02.00974,RGI50-02.00974,02,02: Western Canada and US,Glacier,Land-terminating,False,10,False,RGI link checked manually.
-134.278,58.651,US,TAKU,124,US1805,USN000C00099,,RGI40-01.01390,RGI50-01.01390,01,01: Alaska,Glacier,Marine-terminating,True,70,False,RGI link checked manually.
-148.908,60.412,US,WOLVERINE,94,US0411,USN000D00006,,RGI40-01.09162,RGI50-01.09162,01,01: Alaska,Glacier,Land-terminating,False,49,True,RGI link checked manually.
-121.031,48.4474,US,YAWNING,75,US2050,US2M10446007,,RGI40-02.00992,RGI50-02.00992,02,02: Western Canada and US,Glacier,Land-terminating,False,32,False,RGI link checked manually.
